Plant Code,Plant Name,State,County,solar_mw,Latitude,Longitude,onset_cat,surge_exposed,surge_descr,depth_source
63109,Discovery Solar Center,FL,Brevard,74.5,28.528933,-80.6789,1.0,True,"FEMA Zones (% annual chance): A zone (1%) & 0.2%, Sea Level Rise (Above MHHW): 3 ft, Storm Surge (by Hurricane Category): 1 & 2 & 3",NOAA_CFEM_composite
64641,Big Bend II Solar,FL,Hillsborough,45.8,27.781988,-82.390452,1.0,True,"FEMA Zones (% annual chance): A zone (1%) & 0.2%, Storm Surge (by Hurricane Category): 1 & 2 & 3",NOAA_CFEM_composite
64535,Camden Solar LLC,NC,Camden,20.0,36.30786,-76.144486,1.0,True,"FEMA Zones (% annual chance): 0.2%, Storm Surge (by Hurricane Category): 1 & 2 & 3",NOAA_CFEM_composite
62854,St. James Solar (LA),LA,St James,20.0,29.9734,-90.7335,1.0,True,"FEMA Zones (% annual chance): 0.2%, Storm Surge (by Hurricane Category): 1 & 2 & 3",NOAA_CFEM_composite
64145,Bay Trail Solar Power Plant,FL,Citrus,74.9,28.99999,-82.672244,2.0,True,"FEMA Zones (% annual chance): 0.2%, Storm Surge (by Hurricane Category): 2 & 3",NOAA_CFEM_composite
60611,Summit Farms Solar,NC,Currituck,62.4,36.4765,-76.136,2.0,True,Storm Surge (by Hurricane Category): 2 & 3,NOAA_CFEM_composite
63187,"FL Solar 4, LLC",FL,Leon,42.0,30.2354,-84.2233,2.0,True,"FEMA Zones (% annual chance): 0.2%, Storm Surge (by Hurricane Category): 2 & 3",NOAA_CFEM_composite
59155,Shawboro PV1,NC,Currituck,20.0,36.433333,-76.087222,2.0,True,"FEMA Zones (% annual chance): 0.2%, Storm Surge (by Hurricane Category): 2 & 3",NOAA_CFEM_composite
64169,Albemarle Beach Solar,NC,Washington,130.2,35.928188,-76.620452,3.0,True,"FEMA Zones (% annual chance): 0.2%, Storm Surge (by Hurricane Category): 3",NOAA_CFEM_composite
64683,"Oak Trail Solar, LLC",NC,Currituck,100.0,36.5044,-76.1887,3.0,True,Storm Surge (by Hurricane Category): 3,NOAA_CFEM_composite
62544,Wilkinson Solar LLC,NC,Beaufort,80.6,35.596814,-76.763849,3.0,True,Storm Surge (by Hurricane Category): 3,NOAA_CFEM_composite
65323,Bedford Solar (Dominion),VA,Chesapeake City,70.0,36.7,-76.1647,3.0,True,Storm Surge (by Hurricane Category): 3,NOAA_CFEM_composite
61813,"Ranchland Solar, LLC",NC,Currituck,60.0,36.472591,-76.154089,3.0,True,Storm Surge (by Hurricane Category): 3,NOAA_CFEM_composite
61646,LA3 West Baton Rouge Solar Facility,LA,West Baton Rouge,50.0,30.465105,-91.331855,3.0,True,"FEMA Zones (% annual chance): A zone (1%) & 0.2%, Storm Surge (by Hurricane Category): 3",NOAA_CFEM_composite
63084,Caden Energix Hickory LLC,VA,Chesapeake City,32.0,36.624113,-76.194266,3.0,True,Storm Surge (by Hurricane Category): 3,NOAA_CFEM_composite
60422,Morgan's Corner,NC,Pasquotank,20.0,36.421064,-76.364244,3.0,True,Storm Surge (by Hurricane Category): 3,NOAA_CFEM_composite
64927,Aktina Solar,TX,Wharton,500.0,29.122,-96.276,,False,no-surge/NoData,NOAA_CFEM_composite
64233,Hecate Energy Frye Solar LLC,TX,Swisher,500.0,34.4067,-101.59661,,False,no-surge/NoData,NOAA_CFEM_composite
64347,Mockingbird Solar Center,TX,Lamar,471.0,33.39167,-95.42519,,False,no-surge/NoData,NOAA_CFEM_composite
64133,"Old 300 Solar Center, LLC",TX,Fort Bend,430.0,29.33355,-95.82544,,False,no-surge/NoData,NOAA_CFEM_composite
63255,2W Permian Solar Project Hybrid,TX,Andrews,420.0,32.116388,-102.528333,,False,no-surge/NoData,NOAA_CFEM_composite
62561,"Roadrunner, LLC Hybrid",TX,Upton,400.0,31.219444,-102.19222,,False,no-surge/NoData,NOAA_CFEM_composite
65762,Waco Solar,TX,Limestone,400.0,31.710422,-96.818676,,False,no-surge/NoData,NOAA_CFEM_composite
66420,Five Wells Solar Center - Hybrid,TX,Bell,355.4,30.998647,-97.259017,,False,no-surge/NoData,NOAA_CFEM_composite
66157,Red Tailed Hawk Solar LLC,TX,Wharton,350.0,29.159228,-96.141572,,False,no-surge/NoData,NOAA_CFEM_composite
65645,Lumina Solar Project,TX,Scurry,326.6,32.901081,-100.982695,,False,no-surge/NoData,NOAA_CFEM_composite
65644,Lumina II Solar Project,TX,Scurry,326.6,32.883528,-100.746389,,False,no-surge/NoData,NOAA_CFEM_composite
64859,"IP Radian, LLC",TX,Brown,320.0,31.5481,-99.1872,,False,no-surge/NoData,NOAA_CFEM_composite
67006,Greasewood II LLC,TX,Pecos,306.0,31.10409,-102.60625,,False,no-surge/NoData,NOAA_CFEM_composite
63328,Juno Solar Project,TX,Borden,305.6,32.772889,-101.39102,,False,no-surge/NoData,NOAA_CFEM_composite
62755,Prospero Solar,TX,Andrews,300.0,32.287873,-102.840399,,False,no-surge/NoData,NOAA_CFEM_composite
63194,Delilah Solar Energy LLC,TX,Red River,300.0,33.284418,-95.163557,,False,no-surge/NoData,NOAA_CFEM_composite
65030,Oxbow Solar 1,LA,Pointe Coupee,300.0,30.667878,-91.391706,,False,no-surge/NoData,NOAA_CFEM_composite
65271,Noble Solar,TX,Denton,275.0,33.261505,-97.238057,,False,no-surge/NoData,NOAA_CFEM_composite
63320,Titan Solar Project,TX,Culberson,260.0,31.70038,-104.458136,,False,no-surge/NoData,NOAA_CFEM_composite
62804,Greasewood Solar,TX,Pecos,255.0,31.030996,-102.488209,,False,no-surge/NoData,NOAA_CFEM_composite
62483,Taygete Energy Project LLC,TX,Pecos,255.0,31.165245,-103.125868,,False,no-surge/NoData,NOAA_CFEM_composite
65654,Texas Solar Nova 1,TX,Kent,252.0,33.320637,-100.982201,,False,no-surge/NoData,NOAA_CFEM_composite
64325,Prospero Solar II,TX,Andrews,250.0,32.275814,-102.844806,,False,no-surge/NoData,NOAA_CFEM_composite
65631,"Pisgah Ridge Solar, LLC",TX,Navarro,250.0,31.896737,-96.467327,,False,no-surge/NoData,NOAA_CFEM_composite
65303,Sun Valley Solar Project,TX,Hill,250.0,31.86976,-97.01498,,False,no-surge/NoData,NOAA_CFEM_composite
63211,Samson Solar Energy,TX,Franklin,250.0,33.25102,-95.193426,,False,no-surge/NoData,NOAA_CFEM_composite
61346,RE Maplewood,TX,Pecos,250.0,30.976638,-102.257753,,False,no-surge/NoData,NOAA_CFEM_composite
61906,Phoebe Solar,TX,Winkler,250.0,31.843422,-102.868295,,False,no-surge/NoData,NOAA_CFEM_composite
61920,Galloway 1 Solar Farm,TX,Concho,250.0,31.435932,-99.796613,,False,no-surge/NoData,NOAA_CFEM_composite
63840,Sparta Solar,TX,Bee,250.0,28.655277,-98.001388,,False,no-surge/NoData,NOAA_CFEM_composite
66821,Orion III Solar Project,TX,Milam,250.0,30.960219,-97.12452,,False,no-surge/NoData,NOAA_CFEM_composite
67127,"SR Toombs, LLC",GA,Montgomery,250.0,32.294555,-82.41625,,False,no-surge/NoData,NOAA_CFEM_composite
66941,Orion II Solar Project,TX,Milam,250.0,31.029028,-96.934783,,False,no-surge/NoData,NOAA_CFEM_composite
67424,Hopkins Energy LLC,TX,Hopkins,250.0,33.21732,-95.4621,,False,no-surge/NoData,NOAA_CFEM_composite
63883,Samson Solar Energy III LLC,TX,Lamar,250.0,33.426498,-95.357449,,False,no-surge/NoData,NOAA_CFEM_composite
65937,"Porter Solar, LLC (TX)",TX,Denton,245.0,33.310446,-97.369773,,False,no-surge/NoData,NOAA_CFEM_composite
62013,Pleinmont Solar 2,VA,Spotsylvania,240.0,38.247123,-77.786223,,False,no-surge/NoData,NOAA_CFEM_composite
63985,Fort Bend Solar LLC,TX,Fort Bend,240.0,29.560311,-95.98036,,False,no-surge/NoData,NOAA_CFEM_composite
62249,Misae Solar,TX,Childress,240.0,34.380532,-100.099625,,False,no-surge/NoData,NOAA_CFEM_composite
66471,Eiffel Solar Project,TX,Lamar,240.0,33.599167,-95.525056,,False,no-surge/NoData,NOAA_CFEM_composite
65998,"True North Solar, LLC",TX,Falls,238.8,31.468564,-96.794168,,False,no-surge/NoData,NOAA_CFEM_composite
66801,"Fence Post Solar Hybrid Project, LLC",TX,Navarro,236.0,32.072844,-96.22393,,False,no-surge/NoData,NOAA_CFEM_composite
65034,Bernard Creek Solar,TX,Wharton,230.0,29.45527,-96.088253,,False,no-surge/NoData,NOAA_CFEM_composite
62945,Fighting Jays Solar Project,TX,Fort Bend,227.5,29.358425,-95.746388,,False,no-surge/NoData,NOAA_CFEM_composite
62462,Muscle Shoals,AL,Colbert,227.0,34.76973,-87.90454,,False,no-surge/NoData,NOAA_CFEM_composite
62845,ENGIE Long Draw Solar LLC,TX,Borden,225.0,32.741383,-101.621793,,False,no-surge/NoData,NOAA_CFEM_composite
63905,Azure Sky Solar,TX,Haskell,225.0,33.021601,-99.61463,,False,no-surge/NoData,NOAA_CFEM_composite
63721,Cool Springs Solar (Hybrid),GA,Decatur,213.0,30.747916,-84.680492,,False,no-surge/NoData,NOAA_CFEM_composite
61696,Twiggs Solar,GA,Twiggs,204.0,32.604997,-83.491239,,False,no-surge/NoData,NOAA_CFEM_composite
64075,Taygete II Energy Project,TX,Pecos,203.8,31.186,-103.128,,False,no-surge/NoData,NOAA_CFEM_composite
64258,AP Sunray LLC,TX,Uvalde,203.5,29.291845,-99.612368,,False,no-surge/NoData,NOAA_CFEM_composite
66262,Cutlass Solar II,TX,Fort Bend,202.8,29.39,-95.78,,False,no-surge/NoData,NOAA_CFEM_composite
67047,Decatur Solar,GA,Decatur,200.0,30.854893,-84.445427,,False,no-surge/NoData,NOAA_CFEM_composite
66193,Oak Ridge Solar,LA,Richland,200.0,32.575,-91.7884,,False,no-surge/NoData,NOAA_CFEM_composite
66046,Brazoria County Solar Project (Danciger),TX,Brazoria,200.0,29.1779,-95.7612,,False,no-surge/NoData,NOAA_CFEM_composite
61962,Holstein 1 Solar Farm,TX,Nolan,200.0,32.104125,-100.162375,,False,no-surge/NoData,NOAA_CFEM_composite
64538,Corazon Energy LLC,TX,Webb,200.0,27.634677,-99.258329,,False,no-surge/NoData,NOAA_CFEM_composite
65660,Texas Solar Nova 2,TX,Kent,200.0,33.32056,-100.981664,,False,no-surge/NoData,NOAA_CFEM_composite
64026,"ANSON Solar Center, LLC",TX,Jones,200.0,32.811041,-99.91749,,False,no-surge/NoData,NOAA_CFEM_composite
64447,Brazoria West,TX,Brazoria,200.0,29.191,-95.663,,False,no-surge/NoData,NOAA_CFEM_composite
65333,Shakes Solar,TX,Dimmit,200.0,28.44208,-99.75582,,False,no-surge/NoData,NOAA_CFEM_composite
65308,Horizon Solar,TX,Frio,200.0,28.9377,-99.10765,,False,no-surge/NoData,NOAA_CFEM_composite
62141,Rambler,TX,Tom Green,200.0,31.517,-100.6,,False,no-surge/NoData,NOAA_CFEM_composite
66859,Orion I Solar Project,TX,Milam,200.0,30.996511,-97.001505,,False,no-surge/NoData,NOAA_CFEM_composite
63222,Impact Solar 1,TX,Lamar,198.5,33.467803,-95.370856,,False,no-surge/NoData,NOAA_CFEM_composite
65947,Tres Bahias,TX,Calhoun,196.3,28.68851,-96.509833,,False,no-surge/NoData,NOAA_CFEM_composite
63522,Hickory Park Solar Hybrid,GA,Mitchell,195.5,31.269676,-84.176321,,False,no-surge/NoData,NOAA_CFEM_composite
63329,Aragorn Solar Project,TX,Culberson,187.2,31.719983,-104.442292,,False,no-surge/NoData,NOAA_CFEM_composite
61368,Midway Solar - TX,TX,Pecos,182.0,30.995503,-102.223537,,False,no-surge/NoData,NOAA_CFEM_composite
60123,Castle Gap Solar Hybrid,TX,Upton,180.0,31.255,-102.272,,False,no-surge/NoData,NOAA_CFEM_composite
66239,Pearl River Solar Park LLC,MS,Scott,175.0,32.550998,-89.730141,,False,no-surge/NoData,NOAA_CFEM_composite
62675,Skipjack Solar Center,VA,Charles City,175.0,37.437106,-77.158736,,False,no-surge/NoData,NOAA_CFEM_composite
65793,"Concho Valley Solar, LLC",TX,Tom Green,172.8,31.214,-100.255,,False,no-surge/NoData,NOAA_CFEM_composite
61785,Camilla Solar Energy Project,GA,Mitchell,171.4,31.26955,-84.228721,,False,no-surge/NoData,NOAA_CFEM_composite
62014,Highlander Solar Energy Station 1,VA,Spotsylvania,165.0,38.247123,-77.786223,,False,no-surge/NoData,NOAA_CFEM_composite
64841,"SR DeSoto I, LLC",GA,Lee,165.0,31.886486,-84.021586,,False,no-surge/NoData,NOAA_CFEM_composite
67580,Markum Solar Farm,TX,Bosque,161.0,31.694792,-97.374883,,False,no-surge/NoData,NOAA_CFEM_composite
59994,RE Roserock,TX,Pecos,160.0,30.960209,-103.306662,,False,no-surge/NoData,NOAA_CFEM_composite
66137,Zier Solar,TX,Kinney,160.0,29.350992,-100.562028,,False,no-surge/NoData,NOAA_CFEM_composite
66324,BPL Files Solar,TX,Hill,157.5,32.18398,-97.07141,,False,no-surge/NoData,NOAA_CFEM_composite
67420,Cavalier Solar,VA,Isle of Wight,155.6,37.018,-76.7358,,False,no-surge/NoData,NOAA_CFEM_composite
60044,Buckthorn Westex,TX,Pecos,154.0,30.57552,-102.551292,,False,no-surge/NoData,NOAA_CFEM_composite
67284,Ganado Solar,TX,Jackson,150.5,29.109147,-96.528761,,False,no-surge/NoData,NOAA_CFEM_composite
67019,"Copperhead Solar, LLC",TX,McLennan,150.0,31.45,-96.86,,False,no-surge/NoData,NOAA_CFEM_composite
62584,Quitman Solar,GA,Brooks,150.0,30.849005,-83.643279,,False,no-surge/NoData,NOAA_CFEM_composite
66990,Washington County Solar,GA,Washington,150.0,32.989939,-82.71381,,False,no-surge/NoData,NOAA_CFEM_composite
66954,Umbriel Solar,TX,Polk,150.0,30.668754,-94.783466,,False,no-surge/NoData,NOAA_CFEM_composite
62933,Oberon IA,TX,Ector,150.0,31.703258,-102.701206,,False,no-surge/NoData,NOAA_CFEM_composite
65322,Fort Powhatan Solar,VA,Prince George,150.0,37.26,-77.08,,False,no-surge/NoData,NOAA_CFEM_composite
68474,Peacock Energy Project,TX,San Patricio,150.0,28.000395,-97.387902,,False,no-surge/NoData,NOAA_CFEM_composite
60581,Upton County Solar,TX,Upton,150.0,31.241808,-102.29027,,False,no-surge/NoData,NOAA_CFEM_composite
65291,Golden Triangle II,MS,Lowndes,150.0,33.4155,-88.6223,,False,no-surge/NoData,NOAA_CFEM_composite
64335,Quitman II Solar,GA,Brooks,150.0,30.86205,-83.65165,,False,no-surge/NoData,NOAA_CFEM_composite
63519,Crane Solar Project,TX,Crane,150.0,31.254361,-102.31165,,False,no-surge/NoData,NOAA_CFEM_composite
59897,Taylor County Solar,GA,Taylor,148.0,32.583056,-84.297222,,False,no-surge/NoData,NOAA_CFEM_composite
63892,Lily Solar Hybrid,TX,Kaufman,146.7,32.533273,-96.428985,,False,no-surge/NoData,NOAA_CFEM_composite
57659,East Blackland Solar Project 1,TX,Travis,144.0,30.4214,-97.4614,,False,no-surge/NoData,NOAA_CFEM_composite
66111,Elizabeth Solar Plant,LA,Allen,142.8,30.81981,-92.971755,,False,no-surge/NoData,NOAA_CFEM_composite
61985,Colonial Trail West,VA,Surry,142.4,37.138889,-76.902222,,False,no-surge/NoData,NOAA_CFEM_composite
65975,Starr Solar Ranch,TX,Starr,136.0,26.523359,-99.017108,,False,no-surge/NoData,NOAA_CFEM_composite
65976,Prairie Ronde Solar Farm,LA,St Landry,135.0,30.61,-92.17,,False,no-surge/NoData,NOAA_CFEM_composite
65661,Nebula Solar,TX,Cameron,135.0,26.090103,-97.798453,,False,no-surge/NoData,NOAA_CFEM_composite
63764,Elm Branch Solar 1,TX,Ellis,134.7,32.23256,-96.706121,,False,no-surge/NoData,NOAA_CFEM_composite
64204,Elara Solar,TX,Frio,132.4,28.883196,-99.178605,,False,no-surge/NoData,NOAA_CFEM_composite
66541,Chesapeake Solar Project,VA,Chesapeake City,132.0,36.685103,-76.29661,,False,no-surge/NoData,NOAA_CFEM_composite
66133,"Bartonsville Energy Facility, LLC",VA,Frederick,130.0,39.088731,-78.239904,,False,no-surge/NoData,NOAA_CFEM_composite
61648,Robins Air Force Base Solar,GA,Bibb,128.0,32.681222,-83.616387,,False,no-surge/NoData,NOAA_CFEM_composite
63769,Briar Creek Solar 1,TX,Navarro,127.0,32.067483,-96.585136,,False,no-surge/NoData,NOAA_CFEM_composite
66314,Bookers Mill Solar,VA,Richmond,127.0,37.86,-76.56,,False,no-surge/NoData,NOAA_CFEM_composite
62772,Coniglio Solar,TX,Fannin,123.6,33.404486,-96.082472,,False,no-surge/NoData,NOAA_CFEM_composite
65319,Maplewood Solar,VA,Pittsylvania,120.0,36.89,-79.32,,False,no-surge/NoData,NOAA_CFEM_composite
62375,"Dougherty County Solar, LLC",GA,Dougherty,120.0,31.512003,-84.044499,,False,no-surge/NoData,NOAA_CFEM_composite
63273,Wagyu,TX,Brazoria,120.0,29.242304,-95.658144,,False,no-surge/NoData,NOAA_CFEM_composite
67161,Oak Solar,NC,Northampton,120.0,36.526492,-77.774039,,False,no-surge/NoData,NOAA_CFEM_composite
60436,East Pecos Solar,TX,Pecos,118.5,31.000883,-102.281744,,False,no-surge/NoData,NOAA_CFEM_composite
65225,"Waverly Solar, LLC",VA,Sussex,118.0,37.020784,-77.12265,,False,no-surge/NoData,NOAA_CFEM_composite
63351,Bluebell Solar II,TX,Sterling,115.0,31.888,-100.825,,False,no-surge/NoData,NOAA_CFEM_composite
66310,Cutlass Solar 1 LLC,TX,Fort Bend,110.9,29.409669,-95.73405,,False,no-surge/NoData,NOAA_CFEM_composite
63343,Galloway 2 Solar Farm,TX,Concho,110.0,31.446237,-99.902973,,False,no-surge/NoData,NOAA_CFEM_composite
67159,Liberty County Solar Project,TX,Liberty,109.9,29.95888,-94.85048,,False,no-surge/NoData,NOAA_CFEM_composite
63233,Emerald Grove,TX,Pecos,108.0,31.09331,-102.35964,,False,no-surge/NoData,NOAA_CFEM_composite
65376,SR Snipesville II,GA,Jeff Davis,107.0,31.708821,-82.715724,,False,no-surge/NoData,NOAA_CFEM_composite
66171,SR Snipesville III,GA,Jeff Davis,107.0,31.697152,-82.764546,,False,no-surge/NoData,NOAA_CFEM_composite
64838,"SR Clay, LLC",GA,Clay,106.0,31.544831,-84.900566,,False,no-surge/NoData,NOAA_CFEM_composite
59206,Alamo 6,TX,Pecos,105.0,30.993056,-102.270833,,False,no-surge/NoData,NOAA_CFEM_composite
59896,Butler Solar Project 103,GA,Taylor,104.0,32.561944,-84.275833,,False,no-surge/NoData,NOAA_CFEM_composite
62367,SR Arlington II,GA,Early,102.5,31.415531,-84.830714,,False,no-surge/NoData,NOAA_CFEM_composite
60372,Lamesa Solar,TX,Dawson,102.0,32.715611,-101.926522,,False,no-surge/NoData,NOAA_CFEM_composite
60064,"White Pine Solar, LLC",GA,Taylor,101.2,32.506017,-84.256976,,False,no-surge/NoData,NOAA_CFEM_composite
62814,Sadler Solar,VA,Greensville,100.0,36.6867,-77.558,,False,no-surge/NoData,NOAA_CFEM_composite
62798,Fern Solar LLC,NC,Edgecombe,100.0,36.003272,-77.696443,,False,no-surge/NoData,NOAA_CFEM_composite
66410,Grizzly Ridge Solar,TX,Hamilton,100.0,31.738177,-98.213739,,False,no-surge/NoData,NOAA_CFEM_composite
63765,Black Bear Solar 1,AL,Montgomery,100.0,32.196971,-86.327341,,False,no-surge/NoData,NOAA_CFEM_composite
66369,"Wildflower Solar, LLC (MS)",MS,DeSoto,100.0,34.962,-90.184,,False,no-surge/NoData,NOAA_CFEM_composite
61422,"Southampton Solar, LLC",VA,Southampton,100.0,36.614,-77.166,,False,no-surge/NoData,NOAA_CFEM_composite
66759,Delta's Edge Solar,MS,Carroll,100.0,33.5,-90.1,,False,no-surge/NoData,NOAA_CFEM_composite
62415,West of the Pecos Solar,TX,Reeves,100.0,31.4308,-103.7289,,False,no-surge/NoData,NOAA_CFEM_composite
59205,OCI Alamo 5 LLC,TX,Uvalde,100.0,29.216667,-99.716111,,False,no-surge/NoData,NOAA_CFEM_composite
66240,Ragsdale Solar LLC,MS,Madison,100.0,32.550998,-90.009684,,False,no-surge/NoData,NOAA_CFEM_composite
64081,Sunflower County,MS,Sunflower,100.0,33.757767,-90.536465,,False,no-surge/NoData,NOAA_CFEM_composite
59207,OCI Alamo 7 LLC,TX,Haskell,100.0,33.04,-99.5525,,False,no-surge/NoData,NOAA_CFEM_composite
64191,SR Lumpkin,GA,Stewart,100.0,32.025,-84.7325,,False,no-surge/NoData,NOAA_CFEM_composite
64260,BPL Sol Solar LLC,TX,Falls,100.0,31.346717,-97.082774,,False,no-surge/NoData,NOAA_CFEM_composite
65981,Second Division Solar,TX,Brazoria,100.0,29.170545,-95.741574,,False,no-surge/NoData,NOAA_CFEM_composite
62448,Lapetus,TX,Andrews,100.0,32.460054,-102.672809,,False,no-surge/NoData,NOAA_CFEM_composite
64259,BPL Crown Solar LLC,TX,Falls,100.0,31.346717,-97.082774,,False,no-surge/NoData,NOAA_CFEM_composite
59665,Innovative Solar 37 LLC,NC,Anson,100.0,34.838297,-79.943889,,False,no-surge/NoData,NOAA_CFEM_composite
66623,Harvest Gold Solar,MS,Sunflower,99.0,33.505,-90.636,,False,no-surge/NoData,NOAA_CFEM_composite
67104,Bayou Galion Solar Project,LA,Morehouse Parish,98.1,32.79754,-91.78413,,False,no-surge/NoData,NOAA_CFEM_composite
61986,Spring Grove I,VA,Surry,97.9,37.173916,-76.919245,,False,no-surge/NoData,NOAA_CFEM_composite
62730,Desper Solar,VA,Louisa,88.2,38.015735,-78.043131,,False,no-surge/NoData,NOAA_CFEM_composite
62165,Snipesville,GA,Jeff Davis,86.0,31.715814,-82.74946,,False,no-surge/NoData,NOAA_CFEM_composite
67421,Cavalier Solar A2,VA,Isle of Wight,84.4,37.018,-76.7358,,False,no-surge/NoData,NOAA_CFEM_composite
62505,G.S.E. One LLC,TX,Fannin,83.0,33.500378,-96.146489,,False,no-surge/NoData,NOAA_CFEM_composite
67171,Foxhound,VA,Halifax,83.0,36.875897,-78.741874,,False,no-surge/NoData,NOAA_CFEM_composite
63549,Water Strider Solar,VA,Halifax,80.0,37.016375,-79.027061,,False,no-surge/NoData,NOAA_CFEM_composite
64469,Wing,AL,Covington,80.0,31.007777,-86.59194,,False,no-surge/NoData,NOAA_CFEM_composite
62813,Grasshopper Solar,VA,Mecklenburg,80.0,36.85,-78.45,,False,no-surge/NoData,NOAA_CFEM_composite
59944,"Conetoe II Solar, LLC",NC,Edgecombe,80.0,35.822,-77.481,,False,no-surge/NoData,NOAA_CFEM_composite
63797,Ellis Solar LLC,TX,Ellis,80.0,32.467194,-97.054333,,False,no-surge/NoData,NOAA_CFEM_composite
62768,Piney Creek Solar,VA,Halifax,80.0,36.818554,-78.771892,,False,no-surge/NoData,NOAA_CFEM_composite
60127,"Eastern Shore Solar, LLC",VA,Accomack,80.0,37.943895,-75.569556,,False,no-surge/NoData,NOAA_CFEM_composite
66542,Bulldog Solar LLC,GA,Warren,80.0,33.371,-82.678,,False,no-surge/NoData,NOAA_CFEM_composite
59450,"Decatur Parkway Solar Project, LLC",GA,Decatur,80.0,30.991944,-84.633889,,False,no-surge/NoData,NOAA_CFEM_composite
64150,Lancaster Solar GA,GA,Randolph,80.0,31.766506,-84.797206,,False,no-surge/NoData,NOAA_CFEM_composite
64019,Altavista Solar,VA,Campbell,80.0,37.148199,-79.347497,,False,no-surge/NoData,NOAA_CFEM_composite
63745,"Greensville County Solar Project, LLC",VA,Greensville,80.0,36.64,-77.57,,False,no-surge/NoData,NOAA_CFEM_composite
64144,"Harts Mill Solar, LLC",NC,Edgecombe,80.0,35.9,-77.64,,False,no-surge/NoData,NOAA_CFEM_composite
62340,"Aulander Holloman Solar, LLC",NC,Hertford,80.0,36.29116,-77.066561,,False,no-surge/NoData,NOAA_CFEM_composite
66025,Blackwater Solar,GA,Ware,80.0,31.394022,-82.625047,,False,no-surge/NoData,NOAA_CFEM_composite
68774,Fountain Creek Solar,VA,Greensville,80.0,36.59,-77.67,,False,no-surge/NoData,NOAA_CFEM_composite
66173,SR Ailey,GA,Montgomery,80.0,32.193594,-82.538735,,False,no-surge/NoData,NOAA_CFEM_composite
67021,CPV Stagecoach Solar,GA,Macon,80.0,32.197779,-84.069313,,False,no-surge/NoData,NOAA_CFEM_composite
63076,Gutenberg Solar,NC,Northampton,79.9,36.486428,-77.534825,,False,no-surge/NoData,NOAA_CFEM_composite
60583,LaFayette Solar Farm,AL,Chambers,79.2,32.876313,-85.38821,,False,no-surge/NoData,NOAA_CFEM_composite
65106,"Phobos Solar, LLC",NC,Nash,78.8,35.882921,-78.154961,,False,no-surge/NoData,NOAA_CFEM_composite
63842,"Trent River Solar, LLC",NC,Jones,78.7,34.9915,-77.2514,,False,no-surge/NoData,NOAA_CFEM_composite
66544,Moonshot,MS,Hancock,78.5,30.437172,-89.502896,,False,no-surge/NoData,NOAA_CFEM_composite
66543,Cane Creek,MS,Clarke,78.5,31.976997,-88.887575,,False,no-surge/NoData,NOAA_CFEM_composite
59671,Innovative Solar 46,NC,Cumberland,78.5,34.918194,-78.94355,,False,no-surge/NoData,NOAA_CFEM_composite
65521,"Longbow Solar, LLC",TX,Brazoria,78.1,29.289809,-95.298609,,False,no-surge/NoData,NOAA_CFEM_composite
60082,"White Oak Solar, LLC",GA,Burke,76.5,33.036789,-82.111292,,False,no-surge/NoData,NOAA_CFEM_composite
62012,Pleinmont Solar 1,VA,Spotsylvania,75.0,38.247123,-77.786223,,False,no-surge/NoData,NOAA_CFEM_composite
62679,Palmetto Plains,SC,Orangeburg,75.0,33.340179,-80.697336,,False,no-surge/NoData,NOAA_CFEM_composite
66841,Foxglove Solar,VA,Frederick,75.0,39.073825,-78.280117,,False,no-surge/NoData,NOAA_CFEM_composite
63810,"Centerfield Cooper Solar, LLC",SC,Chesterfield,75.0,34.708762,-80.118838,,False,no-surge/NoData,NOAA_CFEM_composite
63813,"Gunsight Solar, LLC",SC,Lexington,75.0,33.761136,-81.066705,,False,no-surge/NoData,NOAA_CFEM_composite
63271,Huntley,SC,Orangeburg,75.0,33.335583,-80.634174,,False,no-surge/NoData,NOAA_CFEM_composite
63808,"Allora Solar, LLC",SC,Lexington,75.0,33.899338,-81.400467,,False,no-surge/NoData,NOAA_CFEM_composite
62828,TWE Bowman Solar Project,SC,Orangeburg,75.0,33.316159,-80.68244,,False,no-surge/NoData,NOAA_CFEM_composite
60058,"River Bend Solar, LLC (AL)",AL,Lauderdale,75.0,34.831511,-87.842204,,False,no-surge/NoData,NOAA_CFEM_composite
66837,Alton Post Office Solar,VA,Halifax,75.0,36.568918,-79.032915,,False,no-surge/NoData,NOAA_CFEM_composite
64533,Fort Green Solar Power Plant,FL,Hardee,74.9,27.641125,-81.941581,,False,no-surge/NoData,NOAA_CFEM_composite
66709,Beulah Solar,SC,Saluda,74.9,33.945207,-81.571162,,False,no-surge/NoData,NOAA_CFEM_composite
65292,Rice Creek,FL,Putnam,74.9,29.74118,-81.69886,,False,no-surge/NoData,NOAA_CFEM_composite
61982,Columbia Solar Power Plant,FL,Columbia,74.9,29.882644,-82.696145,,False,no-surge/NoData,NOAA_CFEM_composite
65173,Hardeetown Solar Power Plant,FL,Levy,74.9,29.48562,-82.843455,,False,no-surge/NoData,NOAA_CFEM_composite
67049,County Line Renewable Energy Center,FL,Gilchrist,74.9,29.812218,-82.67597,,False,no-surge/NoData,NOAA_CFEM_composite
65172,High Springs Solar Power Plant,FL,Alachua,74.9,29.810018,-82.639837,,False,no-surge/NoData,NOAA_CFEM_composite
65171,Bay Ranch Solar Power Plant,FL,Bay,74.9,30.164754,-85.49179,,False,no-surge/NoData,NOAA_CFEM_composite
63517,Santa Fe Solar Power Plant,FL,Columbia,74.9,29.880408,-82.732589,,False,no-surge/NoData,NOAA_CFEM_composite
61790,"Shaw Creek Solar, LLC",SC,Aiken,74.9,33.674689,-81.754444,,False,no-surge/NoData,NOAA_CFEM_composite
66639,Falmouth Renewable Energy Center,FL,Suwannee,74.9,30.3436,-83.1562,,False,no-surge/NoData,NOAA_CFEM_composite
63982,Charlie Creek Solar Power Plant,FL,Hardee,74.9,27.639778,-81.654367,,False,no-surge/NoData,NOAA_CFEM_composite
62543,Trenton Solar Power Plant,FL,Gilchrist,74.9,29.635051,-82.843085,,False,no-surge/NoData,NOAA_CFEM_composite
66553,Winquepin Renewable Energy Center,FL,Madison,74.9,30.282497,-83.298234,,False,no-surge/NoData,NOAA_CFEM_composite
64146,Sandy Creek Solar Power Plant,FL,Bay,74.9,30.103137,-85.410393,,False,no-surge/NoData,NOAA_CFEM_composite
63518,Twin Rivers Solar Power Plant,FL,Hamilton,74.9,30.466428,-82.968718,,False,no-surge/NoData,NOAA_CFEM_composite
65170,Hildreth Solar Power Plant,FL,Suwannee,74.9,29.964842,-82.823199,,False,no-surge/NoData,NOAA_CFEM_composite
60030,Pecan Solar,NC,Northampton,74.9,36.481008,-77.481164,,False,no-surge/NoData,NOAA_CFEM_composite
65501,Mule Creek Renewable Energy Center,FL,Bay,74.9,30.110543,-85.397607,,False,no-surge/NoData,NOAA_CFEM_composite
61011,Chestnut Solar,NC,Halifax,74.9,36.18,-77.712,,False,no-surge/NoData,NOAA_CFEM_composite
61807,Hamilton Solar Power Plant,FL,Hamilton,74.9,30.444324,-83.186935,,False,no-surge/NoData,NOAA_CFEM_composite
61610,NC 102 Project LLC,NC,Cabarrus,74.8,35.2925,-80.4975,,False,no-surge/NoData,NOAA_CFEM_composite
61667,Wimauma Solar and Battery Storage,FL,Hillsborough,74.8,27.730414,-82.263505,,False,no-surge/NoData,NOAA_CFEM_composite
59589,Rutherford Farm,NC,Rutherford,74.8,35.257778,-81.830556,,False,no-surge/NoData,NOAA_CFEM_composite
67182,Tupelo Solar,FL,Putnam,74.5,29.603731,-81.527251,,False,no-surge/NoData,NOAA_CFEM_composite
64657,Magnolia Solar,FL,Polk,74.5,27.917716,-82.048697,,False,no-surge/NoData,NOAA_CFEM_composite
67203,Bullfrog Creek Solar,FL,Hillsborough,74.5,27.660584,-82.295627,,False,no-surge/NoData,NOAA_CFEM_composite
65910,Wild Quail,FL,Walton,74.5,30.89805,-86.25007,,False,no-surge/NoData,NOAA_CFEM_composite
65909,Hendry Isles,FL,Hendry,74.5,26.749144,-81.192089,,False,no-surge/NoData,NOAA_CFEM_composite
64631,Jamison Solar (FL),FL,Polk,74.5,27.806645,-81.955676,,False,no-surge/NoData,NOAA_CFEM_composite
65866,Canoe,FL,Okaloosa,74.5,30.68003,-86.78045,,False,no-surge/NoData,NOAA_CFEM_composite
65911,Mitchell Creek,FL,Escambia,74.5,30.92851,-87.26414,,False,no-surge/NoData,NOAA_CFEM_composite
65920,Buttonwood,FL,St Lucie,74.5,27.550293,-80.671106,,False,no-surge/NoData,NOAA_CFEM_composite
65921,Honeybell,FL,Okeechobee,74.5,27.50809,-80.73638,,False,no-surge/NoData,NOAA_CFEM_composite
65924,Nature Trail,FL,Baker,74.5,30.272333,-82.156833,,False,no-surge/NoData,NOAA_CFEM_composite
65925,Orchard,FL,St Lucie,74.5,27.55776,-80.5701,,False,no-surge/NoData,NOAA_CFEM_composite
64301,Willow Solar Energy Center,FL,Manatee,74.5,27.448142,-82.080693,,False,no-surge/NoData,NOAA_CFEM_composite
65908,Norton Creek,FL,Madison,74.5,30.390039,-83.343948,,False,no-surge/NoData,NOAA_CFEM_composite
65926,Hawthorne Creek,FL,DeSoto,74.5,27.08314,-81.84124,,False,no-surge/NoData,NOAA_CFEM_composite
59993,Babcock Solar Energy Center Hybrid,FL,Charlotte,74.5,26.861592,-81.751011,,False,no-surge/NoData,NOAA_CFEM_composite
60014,Manatee Solar Energy Center,FL,Manatee,74.5,27.607469,-82.355275,,False,no-surge/NoData,NOAA_CFEM_composite
65927,Fourmile Creek,FL,Calhoun,74.5,30.43989,-85.27589,,False,no-surge/NoData,NOAA_CFEM_composite
66128,Lake Mabel Solar and Battery Storage,FL,Polk,74.5,27.9788,-81.61015,,False,no-surge/NoData,NOAA_CFEM_composite
67672,Cedar Trail,FL,Baker,74.5,30.339139,-82.192861,,False,no-surge/NoData,NOAA_CFEM_composite
64300,Fort Drum Energy Center,FL,Okeechobee,74.5,27.607892,-80.75812,,False,no-surge/NoData,NOAA_CFEM_composite
65039,Sundew,FL,St Lucie,74.5,27.264113,-80.546851,,False,no-surge/NoData,NOAA_CFEM_composite
64757,Blue Springs,FL,Jackson,74.5,30.782897,-85.078686,,False,no-surge/NoData,NOAA_CFEM_composite
67206,Columbia County Solar,FL,Columbia,74.5,29.882422,-82.73425,,False,no-surge/NoData,NOAA_CFEM_composite
65875,Woodyard,FL,Hendry,74.5,26.40932,-81.04845,,False,no-surge/NoData,NOAA_CFEM_composite
65874,Beautyberry,FL,Hendry,74.5,26.36044,-81.02654,,False,no-surge/NoData,NOAA_CFEM_composite
65873,Turnpike,FL,Indian River,74.5,27.56702,-80.64496,,False,no-surge/NoData,NOAA_CFEM_composite
65438,FPL Cavendish Solar Energy Center,FL,Okeechobee,74.5,27.627009,-80.804159,,False,no-surge/NoData,NOAA_CFEM_composite
65519,Bell Ridge Solar,FL,Gilchrist,74.5,29.718728,-82.710783,,False,no-surge/NoData,NOAA_CFEM_composite
65592,FPL Saw Palmetto Solar Energy Center,FL,Bay,74.5,30.419835,-85.441493,,False,no-surge/NoData,NOAA_CFEM_composite
65593,FPL Cypress Pond Solar,FL,Washington,74.5,30.4213,-85.44103,,False,no-surge/NoData,NOAA_CFEM_composite
65872,Monarch,FL,Martin,74.5,27.03074,-80.5248,,False,no-surge/NoData,NOAA_CFEM_composite
65594,FPL Etonia Creek,FL,Putnam,74.5,29.76723,-81.77749,,False,no-surge/NoData,NOAA_CFEM_composite
67207,Gilchrist County Solar,FL,Alachua,74.5,29.618349,-82.670179,,False,no-surge/NoData,NOAA_CFEM_composite
65432,Apalachee,FL,Jackson,74.5,30.76055,-85.06952,,False,no-surge/NoData,NOAA_CFEM_composite
67208,Harmony Florida Solar II,FL,Osceola,74.5,28.16701,-81.084167,,False,no-surge/NoData,NOAA_CFEM_composite
67209,Storey Bend Solar,FL,Osceola,74.5,28.282565,-81.081447,,False,no-surge/NoData,NOAA_CFEM_composite
65871,Caloosahatchee,FL,Hendry,74.5,26.75408,-81.18562,,False,no-surge/NoData,NOAA_CFEM_composite
65869,White Tail,FL,Martin,74.5,27.07794,-80.37925,,False,no-surge/NoData,NOAA_CFEM_composite
65868,Prairie Creek FL,FL,DeSoto,74.5,27.074158,-81.696566,,False,no-surge/NoData,NOAA_CFEM_composite
65862,Big Juniper Solar,FL,Santa Rosa,74.5,30.63933,-86.92558,,False,no-surge/NoData,NOAA_CFEM_composite
65863,Three Creeks,FL,Manatee,74.5,27.57934,-82.26058,,False,no-surge/NoData,NOAA_CFEM_composite
65864,Sambucus,FL,Manatee,74.5,27.44844,-82.06377,,False,no-surge/NoData,NOAA_CFEM_composite
65867,Sparkleberry,FL,Escambia,74.5,30.76314,-87.4332,,False,no-surge/NoData,NOAA_CFEM_composite
65433,Blackwater River Solar Energy Center,FL,Santa Rosa,74.5,30.64691,-86.93821,,False,no-surge/NoData,NOAA_CFEM_composite
65431,Anhinga Solar Energy Center,FL,Clay,74.5,29.88213,-81.67618,,False,no-surge/NoData,NOAA_CFEM_composite
65907,Georges Lake,FL,Putnam,74.5,29.756975,-81.759128,,False,no-surge/NoData,NOAA_CFEM_composite
65042,Grove,FL,Indian River,74.5,27.580883,-80.652711,,False,no-surge/NoData,NOAA_CFEM_composite
65888,Kayak,FL,Okaloosa,74.5,30.415143,-86.423303,,False,no-surge/NoData,NOAA_CFEM_composite
65036,Cotton Creek Solar Energy Center,FL,Escambia,74.5,30.841873,-87.343975,,False,no-surge/NoData,NOAA_CFEM_composite
65882,Terrill Creek,FL,Clay,74.5,29.88143,-81.76258,,False,no-surge/NoData,NOAA_CFEM_composite
65037,Sawgrass Solar Energy Center,FL,Hendry,74.5,26.381386,-81.053721,,False,no-surge/NoData,NOAA_CFEM_composite
65879,Pecan Tree,FL,Walton,74.5,30.938167,-86.240111,,False,no-surge/NoData,NOAA_CFEM_composite
65038,Ghost Orchid Solar Energy Center,FL,Hendry,74.5,26.417212,-81.03531,,False,no-surge/NoData,NOAA_CFEM_composite
65865,Pineapple,FL,St Lucie,74.5,27.2551,-80.57123,,False,no-surge/NoData,NOAA_CFEM_composite
65040,Immokalee,FL,Collier,74.5,26.474576,-81.433471,,False,no-surge/NoData,NOAA_CFEM_composite
65041,Elder Branch,FL,Manatee,74.5,27.5966,-82.25272,,False,no-surge/NoData,NOAA_CFEM_composite
65878,Silver Palm,FL,Palm Beach,74.5,26.78768,-80.35192,,False,no-surge/NoData,NOAA_CFEM_composite
65429,FPL Shirer Branch Solar Energy Center,FL,Calhoun,74.5,30.3962,-85.279663,,False,no-surge/NoData,NOAA_CFEM_composite
67205,Gadsden County Solar,FL,Gadsden,74.5,30.656542,-84.724394,,False,no-surge/NoData,NOAA_CFEM_composite
65877,Ibis,FL,Brevard,74.5,27.848073,-80.695504,,False,no-surge/NoData,NOAA_CFEM_composite
65420,Bluefield Preserve Solar,FL,St Lucie,74.5,27.24354,-80.67097,,False,no-surge/NoData,NOAA_CFEM_composite
65421,Chautauqua Solar Energy Center,FL,Walton,74.5,30.87576,-86.20813,,False,no-surge/NoData,NOAA_CFEM_composite
65422,FPL Chipola River Solar Energy Center,FL,Calhoun,74.5,30.45463,-85.27853,,False,no-surge/NoData,NOAA_CFEM_composite
65423,Everglades Solar Energy Center,FL,Miami Dade,74.5,25.54255,-80.55434,,False,no-surge/NoData,NOAA_CFEM_composite
65424,First City Solar Energy Center,FL,Escambia,74.5,30.91993,-87.34002,,False,no-surge/NoData,NOAA_CFEM_composite
65427,FPL Flowers Creek Solar Energy Center,FL,Calhoun,74.5,30.569958,-85.040244,,False,no-surge/NoData,NOAA_CFEM_composite
65428,Pink Trial Solar Energy Center,FL,St Lucie,74.5,27.29783,-80.54214,,False,no-surge/NoData,NOAA_CFEM_composite
65430,Wild Azalea Solar Energy Center,FL,Gadsden,74.5,30.6758,-84.74033,,False,no-surge/NoData,NOAA_CFEM_composite
62631,Blue Heron Solar,FL,Hendry,74.5,26.701639,-81.129155,,False,no-surge/NoData,NOAA_CFEM_composite
62490,Echo River Solar,FL,Suwannee,74.5,30.296207,-82.864333,,False,no-surge/NoData,NOAA_CFEM_composite
62493,Southfork Solar,FL,Manatee,74.5,27.573193,-82.191421,,False,no-surge/NoData,NOAA_CFEM_composite
61763,Sunshine Gateway Solar Energy Center,FL,Columbia,74.5,30.29,-82.75,,False,no-surge/NoData,NOAA_CFEM_composite
62542,Debary Solar Power Plant,FL,Volusia,74.5,28.899548,-81.330856,,False,no-surge/NoData,NOAA_CFEM_composite
61029,Blue Cypress Solar Energy Center,FL,Indian River,74.5,27.609456,-80.537189,,False,no-surge/NoData,NOAA_CFEM_composite
61024,Hammock Solar,FL,Hendry,74.5,26.692646,-81.324953,,False,no-surge/NoData,NOAA_CFEM_composite
62632,Cattle Ranch,FL,DeSoto,74.5,27.321884,-81.809077,,False,no-surge/NoData,NOAA_CFEM_composite
61766,Miami Dade Solar Energy Center,FL,Miami Dade,74.5,25.64,-80.49,,False,no-surge/NoData,NOAA_CFEM_composite
63110,Sabal Palm Solar Center,FL,Palm Beach,74.5,26.782655,-80.352619,,False,no-surge/NoData,NOAA_CFEM_composite
61767,Pioneer Trail Solar Energy Center,FL,Volusia,74.5,29.08,-81.1,,False,no-surge/NoData,NOAA_CFEM_composite
61768,Interstate Solar Energy Center,FL,St Lucie,74.5,27.5,-80.44,,False,no-surge/NoData,NOAA_CFEM_composite
62633,Twin Lakes,FL,Putnam,74.5,29.612188,-81.844528,,False,no-surge/NoData,NOAA_CFEM_composite
62634,Babcock Preserve,FL,Charlotte,74.5,26.857879,-81.759645,,False,no-surge/NoData,NOAA_CFEM_composite
62645,Northern Preserve Solar,FL,Baker,74.5,30.2473,-82.226907,,False,no-surge/NoData,NOAA_CFEM_composite
62925,Egret Solar Center,FL,Baker,74.5,30.28251,-82.18378,,False,no-surge/NoData,NOAA_CFEM_composite
62924,Pelican Solar Center,FL,St Lucie,74.5,27.522,-80.54726,,False,no-surge/NoData,NOAA_CFEM_composite
62923,Union Springs Solar Center,FL,Union,74.5,29.97397,-82.30099,,False,no-surge/NoData,NOAA_CFEM_composite
62922,Lakeside Solar Center,FL,Okeechobee,74.5,27.21421,-80.74458,,False,no-surge/NoData,NOAA_CFEM_composite
62921,Palm Bay Solar,FL,Brevard,74.5,27.8421,-80.631554,,False,no-surge/NoData,NOAA_CFEM_composite
62919,Orange Blossom Solar Center,FL,Indian River,74.5,27.59686,-80.57071,,False,no-surge/NoData,NOAA_CFEM_composite
62917,Rodeo Solar Center,FL,DeSoto,74.5,27.32063,-81.81024,,False,no-surge/NoData,NOAA_CFEM_composite
62916,Trailside Solar Center,FL,St Johns,74.5,29.774987,-81.427853,,False,no-surge/NoData,NOAA_CFEM_composite
62915,Magnolia Springs Solar Center,FL,Clay,74.5,29.89857,-81.69333,,False,no-surge/NoData,NOAA_CFEM_composite
62914,Nassau Solar Center,FL,Nassau,74.5,30.50391,-81.88411,,False,no-surge/NoData,NOAA_CFEM_composite
60061,Citrus Solar Energy Center Hybrid,FL,DeSoto,74.5,27.320919,-81.806863,,False,no-surge/NoData,NOAA_CFEM_composite
61022,Coral Farms Solar Energy Center,FL,Putnam,74.5,29.756944,-81.897222,,False,no-surge/NoData,NOAA_CFEM_composite
61020,Indian River Solar Center,FL,Indian River,74.5,27.573256,-80.578178,,False,no-surge/NoData,NOAA_CFEM_composite
61021,Horizon Solar Energy Center,FL,Putnam,74.5,29.665556,-82.058333,,False,no-surge/NoData,NOAA_CFEM_composite
62491,Okeechobee Solar,FL,Okeechobee,74.5,27.630392,-80.794784,,False,no-surge/NoData,NOAA_CFEM_composite
62750,Little Manatee River Solar,FL,Hillsborough,74.5,27.691262,-82.410575,,False,no-surge/NoData,NOAA_CFEM_composite
62394,Sweetbay Solar Center,FL,Martin,74.5,27.060112,-80.474488,,False,no-surge/NoData,NOAA_CFEM_composite
62206,Hibiscus Solar Energy Center,FL,Palm Beach,74.5,26.7601,-80.3065,,False,no-surge/NoData,NOAA_CFEM_composite
63582,Harmony Solar (FL),FL,Osceola,74.5,28.155322,-81.108333,,False,no-surge/NoData,NOAA_CFEM_composite
61050,Wildflower Solar Energy Center,FL,Desoto,74.5,27.316187,-81.783899,,False,no-surge/NoData,NOAA_CFEM_composite
63978,Duette Solar Power Plant,FL,Manatee,74.5,27.585836,-82.061964,,False,no-surge/NoData,NOAA_CFEM_composite
63754,Gulf Power Blue Indigo Energy,FL,Jackson,74.5,30.877262,-85.40065,,False,no-surge/NoData,NOAA_CFEM_composite
61663,Lithia Solar,FL,Hillsborough,74.5,27.753272,-82.164656,,False,no-surge/NoData,NOAA_CFEM_composite
63583,Taylor Creek Solar,FL,Orange,74.5,28.503469,-81.048333,,False,no-surge/NoData,NOAA_CFEM_composite
61051,Barefoot Bay Solar Energy Center,FL,Brevard,74.5,27.865833,-80.521111,,False,no-surge/NoData,NOAA_CFEM_composite
61052,Loggerhead Solar Energy Center,FL,St Lucie,74.5,27.237778,-80.541389,,False,no-surge/NoData,NOAA_CFEM_composite
66237,Misenheimer Solar LLC,NC,Stanly,74.4,35.478126,-80.300126,,False,no-surge/NoData,NOAA_CFEM_composite
61654,Balm Solar,FL,Hillsborough,74.4,27.76284,-82.23463,,False,no-surge/NoData,NOAA_CFEM_composite
62058,SR Terrell,GA,Terrell,74.0,31.871387,-84.361952,,False,no-surge/NoData,NOAA_CFEM_composite
66717,Eastover Solar,SC,Richland,73.6,33.918542,-80.6467,,False,no-surge/NoData,NOAA_CFEM_composite
61701,Seabrook Solar,SC,Beaufort,72.5,32.56445,-80.742047,,False,no-surge/NoData,NOAA_CFEM_composite
63839,Midlands,SC,Calhoun,72.1,33.648979,-80.942818,,False,no-surge/NoData,NOAA_CFEM_composite
67023,Dileo Solar,TX,Hill,71.4,31.78,-97.51,,False,no-surge/NoData,NOAA_CFEM_composite
60658,Moffett Solar Project,SC,Jasper,71.4,32.620653,-80.995994,,False,no-surge/NoData,NOAA_CFEM_composite
60539,Innovative Solar 42,NC,Bladen,71.0,34.847627,-78.877359,,False,no-surge/NoData,NOAA_CFEM_composite
61665,Payne Creek Solar,FL,Polk,70.3,27.664583,-81.964222,,False,no-surge/NoData,NOAA_CFEM_composite
65107,"Cabin Creek Solar, LLC",NC,Montgomery,70.2,35.33604,-79.741698,,False,no-surge/NoData,NOAA_CFEM_composite
62678,Crooked Run,NC,Pender,70.1,34.67704,-77.977497,,False,no-surge/NoData,NOAA_CFEM_composite
63976,Bay Tree,NC,Bladen,70.1,34.70414,-78.393358,,False,no-surge/NoData,NOAA_CFEM_composite
63548,Lily Solar,SC,Allendale,70.0,33.094931,-81.434842,,False,no-surge/NoData,NOAA_CFEM_composite
65305,Powells Creek Solar - Hybrid,VA,Halifax,70.0,36.55467,-79.0286,,False,no-surge/NoData,NOAA_CFEM_composite
65683,Juniper Solar (FL),FL,Pasco,70.0,28.181569,-82.155331,,False,no-surge/NoData,NOAA_CFEM_composite
64840,"SR Cedar Springs, LLC",GA,Early,70.0,31.2453,-85.086975,,False,no-surge/NoData,NOAA_CFEM_composite
66026,Hobnail Solar,GA,Burke,70.0,33.262,-82.178,,False,no-surge/NoData,NOAA_CFEM_composite
62668,Maiden Creek Solar Power Plant,NC,Catawba,69.3,35.593,-81.167,,False,no-surge/NoData,NOAA_CFEM_composite
64151,SR Perry,GA,Houston,68.0,32.39597,-83.762901,,False,no-surge/NoData,NOAA_CFEM_composite
62235,Lone Star Solar,SC,Calhoun,66.0,33.648767,-80.639122,,False,no-surge/NoData,NOAA_CFEM_composite
66635,Caden Energix Axton LLC,VA,Henry,66.0,36.667889,-79.755013,,False,no-surge/NoData,NOAA_CFEM_composite
58848,Warsaw Farm,NC,Duplin,65.0,35.005556,-78.125833,,False,no-surge/NoData,NOAA_CFEM_composite
62951,Hawtree Solar,NC,Warren,65.0,36.533,-78.105,,False,no-surge/NoData,NOAA_CFEM_composite
66172,SR DeSoto II,GA,Lee,65.0,31.87042,-84.03574,,False,no-surge/NoData,NOAA_CFEM_composite
60380,"Shoe Creek Solar, LLC",NC,Scotland,65.0,34.84492,-79.38472,,False,no-surge/NoData,NOAA_CFEM_composite
66839,Crystal Hill Solar,VA,Halifax,64.7,36.839909,-78.938199,,False,no-surge/NoData,NOAA_CFEM_composite
66316,Madison Solar (VA),VA,Orange,62.5,38.28775,-77.840046,,False,no-surge/NoData,NOAA_CFEM_composite
65684,Laurel Oaks Solar,FL,Hillsborough,61.2,27.926882,-82.067668,,False,no-surge/NoData,NOAA_CFEM_composite
61656,Grange Hall Solar,FL,Hillsborough,61.1,27.681278,-82.164656,,False,no-surge/NoData,NOAA_CFEM_composite
63807,"Sugar Solar, LLC",NC,Yadkin,60.0,36.1607,-80.6574,,False,no-surge/NoData,NOAA_CFEM_composite
61653,Alafia Solar,FL,Polk,60.0,27.723197,-82.025608,,False,no-surge/NoData,NOAA_CFEM_composite
63909,Otter Creek Solar,VA,Mecklenburg,60.0,36.807131,-78.509769,,False,no-surge/NoData,NOAA_CFEM_composite
66825,SR DeSoto III,GA,Lee,60.0,31.868033,-84.007772,,False,no-surge/NoData,NOAA_CFEM_composite
63495,Durrance,FL,Polk,60.0,27.78,-81.98,,False,no-surge/NoData,NOAA_CFEM_composite
62758,Meherrin Solar,VA,Greensville,59.6,36.59,-77.65,,False,no-surge/NoData,NOAA_CFEM_composite
62774,Kellam Solar,TX,Van Zandt,59.0,32.4744,-95.7156,,False,no-surge/NoData,NOAA_CFEM_composite
62773,"BT Cooke Solar, LLC",TX,Cooke,59.0,33.5493,-97.1798,,False,no-surge/NoData,NOAA_CFEM_composite
63350,OE_GA3,GA,Mitchell,57.5,31.196185,-84.147539,,False,no-surge/NoData,NOAA_CFEM_composite
61666,Peace Creek Solar,FL,Polk,55.4,27.913306,-81.810111,,False,no-surge/NoData,NOAA_CFEM_composite
65687,Riverside Solar,FL,Hillsborough,55.2,27.68368,-82.47243,,False,no-surge/NoData,NOAA_CFEM_composite
65955,"Landrace Holdings, LLC",SC,Horry,55.0,33.723937,-79.091998,,False,no-surge/NoData,NOAA_CFEM_composite
67342,Carvers Creek Solar,VA,Gloucester,54.9,37.56189,-76.605373,,False,no-surge/NoData,NOAA_CFEM_composite
60383,Monroe Solar Facility,NC,Union,54.6,34.929945,-80.625615,,False,no-surge/NoData,NOAA_CFEM_composite
61664,Mountain View Solar (FL),FL,Pasco,54.6,28.39799,-82.22043,,False,no-surge/NoData,NOAA_CFEM_composite
62163,Meridian III,MS,Lauderdale,52.5,32.453955,-88.549484,,False,no-surge/NoData,NOAA_CFEM_composite
60554,Hazlehurst II,GA,Jeff Davis,52.5,31.819444,-82.602222,,False,no-surge/NoData,NOAA_CFEM_composite
61693,Buckleberry Solar,NC,Lenoir,52.1,35.380683,-77.405992,,False,no-surge/NoData,NOAA_CFEM_composite
60303,Sumrall II Solar Farm,MS,Lamar,52.0,31.397089,-89.485884,,False,no-surge/NoData,NOAA_CFEM_composite
61988,Citrus Ridge Solar,FL,Orange,52.0,28.40078,-81.61632,,False,no-surge/NoData,NOAA_CFEM_composite
60306,Sumrall I Solar Farm,MS,Lamar,52.0,31.403531,-89.49764,,False,no-surge/NoData,NOAA_CFEM_composite
60063,"Live Oak Solar, LLC",GA,Candler,51.0,32.423798,-82.102824,,False,no-surge/NoData,NOAA_CFEM_composite
65307,Sunnybrook Solar Project - Hybrid,VA,Halifax,51.0,36.798717,-78.83961,,False,no-surge/NoData,NOAA_CFEM_composite
60149,"Innovative Solar 43, LLC",NC,Bladen,50.8,34.529956,-78.304811,,False,no-surge/NoData,NOAA_CFEM_composite
63223,Brightside,TX,Bee,50.7,28.430988,-97.889555,,False,no-surge/NoData,NOAA_CFEM_composite
60624,Fox Creek Solar,NC,Franklin,50.2,36.126912,-78.273106,,False,no-surge/NoData,NOAA_CFEM_composite
60623,Brantley Solar,NC,Nash,50.2,35.890485,-78.155153,,False,no-surge/NoData,NOAA_CFEM_composite
60989,SolaireHolman Solar Project,TX,Brewster,50.0,30.45512,-103.4747,,False,no-surge/NoData,NOAA_CFEM_composite
63811,"Lick Creek Solar, LLC",NC,Stokes,50.0,36.283056,-80.128265,,False,no-surge/NoData,NOAA_CFEM_composite
61512,"Bullock Solar, LLC",NC,Vance,50.0,36.475369,-78.315078,,False,no-surge/NoData,NOAA_CFEM_composite
63827,Partin Solar,NC,Surry,50.0,36.26801,-80.821936,,False,no-surge/NoData,NOAA_CFEM_composite
61697,Lamesa II,TX,Dawson,50.0,32.713326,-101.885218,,False,no-surge/NoData,NOAA_CFEM_composite
64702,"Stanly Solar, LLC",NC,Stanly,50.0,35.289722,-80.235556,,False,no-surge/NoData,NOAA_CFEM_composite
59691,Gulf Coast Solar Center III,FL,Escambia,50.0,30.470351,-87.335193,,False,no-surge/NoData,NOAA_CFEM_composite
67849,BT Signal Ranch,TX,Hunt,50.0,32.986,-96.085998,,False,no-surge/NoData,NOAA_CFEM_composite
61561,Bladen Solar,NC,Bladen,50.0,34.823522,-78.62345,,False,no-surge/NoData,NOAA_CFEM_composite
60552,Hattiesburg Solar Farm,MS,Forrest,50.0,31.275828,-89.301156,,False,no-surge/NoData,NOAA_CFEM_composite
62822,"Broad River Solar, LLC",NC,Cleveland,50.0,35.188,-81.751,,False,no-surge/NoData,NOAA_CFEM_composite
67071,Sunlight Road Solar,LA,Washington,50.0,30.781803,-90.217355,,False,no-surge/NoData,NOAA_CFEM_composite
63128,Iris Solar LLC,LA,Washington,50.0,30.78184,-90.19536,,False,no-surge/NoData,NOAA_CFEM_composite
62959,Whitehorn Solar,VA,Pittsylvania,50.0,36.931378,-79.358743,,False,no-surge/NoData,NOAA_CFEM_composite
60682,Pearl Solar,TX,Pecos,50.0,30.98784,-102.26831,,False,no-surge/NoData,NOAA_CFEM_composite
59669,Innovative Solar 54,NC,Lenoir,50.0,35.213697,-77.712408,,False,no-surge/NoData,NOAA_CFEM_composite
62950,Bluestone Solar,VA,Mecklenburg,49.9,36.811533,-78.483909,,False,no-surge/NoData,NOAA_CFEM_composite
67024,Pitts Dudik Solar,TX,Hill,49.6,31.8932,-96.8751,,False,no-surge/NoData,NOAA_CFEM_composite
61657,Lake Hancock Solar,FL,Polk,49.5,27.719139,-82.033889,,False,no-surge/NoData,NOAA_CFEM_composite
62377,Moody Air Force Base Solar,GA,Lowndes,49.5,30.9574,-83.2229,,False,no-surge/NoData,NOAA_CFEM_composite
63812,"Highest Power Solar, LLC",NC,Franklin,48.7,36.12,-78.25,,False,no-surge/NoData,NOAA_CFEM_composite
59778,Eden Solar LLC,NC,Richmond,47.7,35.148503,-79.636372,,False,no-surge/NoData,NOAA_CFEM_composite
62541,Lake Placid Solar Power Plant,FL,Highlands,45.0,27.331136,-81.364018,,False,no-surge/NoData,NOAA_CFEM_composite
65662,Vancourt Solar Interconnections,TX,Cameron,45.0,26.090103,-97.798453,,False,no-surge/NoData,NOAA_CFEM_composite
64136,Sycamore Solar,VA,Pittsylvania,42.0,36.942634,-79.192804,,False,no-surge/NoData,NOAA_CFEM_composite
58537,OCI Alamo Solar I Hybrid,TX,Bexar,40.7,29.271667,-98.444722,,False,no-surge/NoData,NOAA_CFEM_composite
62057,Hazlehurst III,GA,Jeff Davis,40.0,31.832474,-82.602139,,False,no-surge/NoData,NOAA_CFEM_composite
59164,Elm City Solar Facility,NC,Wilson,40.0,35.781111,-77.846944,,False,no-surge/NoData,NOAA_CFEM_composite
59690,Gulf Coast Solar Center II,FL,Santa Rosa,40.0,30.430766,-86.895204,,False,no-surge/NoData,NOAA_CFEM_composite
66024,Bird Dog Solar,GA,Burke,40.0,33.126562,-81.999369,,False,no-surge/NoData,NOAA_CFEM_composite
66418,Sonny Solar LLC,GA,Elbert,40.0,34.052037,-82.722204,,False,no-surge/NoData,NOAA_CFEM_composite
58717,"OCI Alamo 4, LLC",TX,Kinney,39.6,29.33,-100.39,,False,no-surge/NoData,NOAA_CFEM_composite
61976,Peony Solar,SC,Orangeburg,39.0,33.502,-81.254,,False,no-surge/NoData,NOAA_CFEM_composite
66027,Wolfskin Solar,GA,Oglethorpe,38.0,33.881462,-83.246677,,False,no-surge/NoData,NOAA_CFEM_composite
61655,Bonnie Mine Solar,FL,Polk,37.5,27.89008,-81.98717,,False,no-surge/NoData,NOAA_CFEM_composite
66358,"Virginia Line Solar, LLC",NC,Warren,35.0,36.523774,-78.285361,,False,no-surge/NoData,NOAA_CFEM_composite
60540,Innovative Solar 31,NC,Bladen,35.0,34.539425,-78.755394,,False,no-surge/NoData,NOAA_CFEM_composite
59666,Innovative Solar 47,NC,Robeson,33.8,34.801933,-79.332447,,False,no-surge/NoData,NOAA_CFEM_composite
59678,Innovative Solar 67,NC,Pender,33.3,34.623309,-78.005377,,False,no-surge/NoData,NOAA_CFEM_composite
67488,TAI Huntsville Solar Hybrid,AL,Madison,32.4,34.829551,-86.630351,,False,no-surge/NoData,NOAA_CFEM_composite
65219,"Caden Energix Endless Caverns, LLC",VA,Rockingham,31.4,38.613601,-78.677069,,False,no-surge/NoData,NOAA_CFEM_composite
59876,Marine Corps Logistics Base Solar,GA,Dougherty,31.0,31.560729,-84.093261,,False,no-surge/NoData,NOAA_CFEM_composite
59894,Pawpaw Solar Plant,GA,Taylor,30.5,32.572875,-84.256778,,False,no-surge/NoData,NOAA_CFEM_composite
58710,Barilla Solar,TX,Pecos,30.2,30.96,-103.35,,False,no-surge/NoData,NOAA_CFEM_composite
59689,Gulf Coast Solar Center I,FL,Okaloosa,30.0,30.515448,-86.518407,,False,no-surge/NoData,NOAA_CFEM_composite
59862,Fort Benning Solar Facility,AL,Russell,30.0,32.30404,-84.98993,,False,no-surge/NoData,NOAA_CFEM_composite
59863,Fort Gordon Solar Facility,GA,Richmond,30.0,33.386625,-82.140117,,False,no-surge/NoData,NOAA_CFEM_composite
59864,Kings Bay Solar Facility,GA,Camden,30.0,30.827627,-81.556238,,False,no-surge/NoData,NOAA_CFEM_composite
60789,Bluebell Solar,TX,Sterling,30.0,31.87,-100.828,,False,no-surge/NoData,NOAA_CFEM_composite
58628,Simon Solar Farm LLC,GA,Walton,30.0,33.678056,-83.675833,,False,no-surge/NoData,NOAA_CFEM_composite
62932,Oberon IB,TX,Ector,30.0,31.692358,-102.69743,,False,no-surge/NoData,NOAA_CFEM_composite
59865,Fort Stewart Solar Facility,GA,Liberty,30.0,31.90474,-81.595373,,False,no-surge/NoData,NOAA_CFEM_composite
57699,Webberville Solar Project,TX,Travis,30.0,30.238492,-97.508812,,False,no-surge/NoData,NOAA_CFEM_composite
56929,DeSoto Next Generation Solar Energy,FL,DeSoto,25.0,27.3232,-81.8019,,False,no-surge/NoData,NOAA_CFEM_composite
66129,Dover Solar and Battery Storage,FL,Hillsborough,25.0,27.955865,-82.201381,,False,no-surge/NoData,NOAA_CFEM_composite
64211,Baxley,GA,Appling,25.0,31.877717,-82.333892,,False,no-surge/NoData,NOAA_CFEM_composite
62669,Gaston Solar Power Plant,NC,Gaston,25.0,35.3224,-81.1343,,False,no-surge/NoData,NOAA_CFEM_composite
64158,Mechanicsville Solar,VA,Hanover,25.0,37.665975,-77.207725,,False,no-surge/NoData,NOAA_CFEM_composite
66880,Hayhurst Texas Solar,TX,Culberson,24.8,31.815992,-104.085297,,False,no-surge/NoData,NOAA_CFEM_composite
63789,East Nash PV2,NC,Nash,23.4,35.955653,-78.093622,,False,no-surge/NoData,NOAA_CFEM_composite
59117,DD Fayetteville Solar NC LLC,NC,Bladen,23.1,34.834444,-78.843611,,False,no-surge/NoData,NOAA_CFEM_composite
66921,English Creek Solar,FL,Hillsborough,23.0,27.945756,-82.067228,,False,no-surge/NoData,NOAA_CFEM_composite
62820,"Stony Knoll Solar, LLC",NC,Surry,22.6,36.288,-80.656,,False,no-surge/NoData,NOAA_CFEM_composite
62821,"Speedway Solar NC, LLC",NC,Cabarrus,22.6,35.218,-80.536,,False,no-surge/NoData,NOAA_CFEM_composite
59891,Butler Solar Farm 20,GA,Taylor,22.0,32.575542,-84.316547,,False,no-surge/NoData,NOAA_CFEM_composite
62594,Ruff Solar LLC,NC,Rutherford,22.0,35.32062,-81.7634,,False,no-surge/NoData,NOAA_CFEM_composite
57994,Apple Data Center PV,NC,Catawba,21.0,35.588135,-81.25198,,False,no-surge/NoData,NOAA_CFEM_composite
60001,Vaughn Creek PV1,NC,Hertford,20.0,36.451012,-77.120595,,False,no-surge/NoData,NOAA_CFEM_composite
60319,Whitehouse Solar Farm,VA,Louisa,20.0,38.023,-77.972,,False,no-surge/NoData,NOAA_CFEM_composite
59951,Five Forks Solar,NC,Warren,20.0,36.515544,-78.033704,,False,no-surge/NoData,NOAA_CFEM_composite
60582,CoTAL Solar Farm,FL,Leon,20.0,30.37926,-84.353938,,False,no-surge/NoData,NOAA_CFEM_composite
59874,Richland Solar Center,GA,Twiggs,20.0,32.638034,-83.378924,,False,no-surge/NoData,NOAA_CFEM_composite
60637,Cork Oak Solar,NC,Halifax,20.0,36.371,-77.571,,False,no-surge/NoData,NOAA_CFEM_composite
59685,Remington Solar Facility,VA,Fauquier,20.0,38.548333,-77.776389,,False,no-surge/NoData,NOAA_CFEM_composite
59530,Pasquotank,NC,Pasquotank,20.0,36.264722,-76.306111,,False,no-surge/NoData,NOAA_CFEM_composite
59535,SR Hazlehurst,GA,Jeff Davis,20.0,31.810278,-82.575,,False,no-surge/NoData,NOAA_CFEM_composite
60916,"Sussex Drive, LLC",VA,Sussex,20.0,36.940529,-77.41776,,False,no-surge/NoData,NOAA_CFEM_composite
59527,Kelford (Duke),NC,Bertie,20.0,36.148056,-77.211944,,False,no-surge/NoData,NOAA_CFEM_composite
59518,Grandy PV 1,NC,Currituck,20.0,36.233611,-75.880833,,False,no-surge/NoData,NOAA_CFEM_composite
59513,Meadows PV 1,NC,Martin,20.0,35.836944,-77.126944,,False,no-surge/NoData,NOAA_CFEM_composite
59449,Decatur County Solar Project,GA,Decatur,20.0,30.965,-84.626111,,False,no-surge/NoData,NOAA_CFEM_composite
59153,Watson Seed Farm PV1,NC,Nash,20.0,36.129722,-77.721389,,False,no-surge/NoData,NOAA_CFEM_composite
58943,Halifax (NC),NC,Halifax,20.0,36.441944,-77.711389,,False,no-surge/NoData,NOAA_CFEM_composite
58844,"Dogwood Solar, LLC",NC,Halifax,20.0,36.125,-77.409167,,False,no-surge/NoData,NOAA_CFEM_composite
58701,Apple Data Center - PV2,NC,Catawba,20.0,35.738889,-81.207778,,False,no-surge/NoData,NOAA_CFEM_composite
58649,Montgomery Solar LLC,NC,Montgomery,20.0,35.344444,-79.768333,,False,no-surge/NoData,NOAA_CFEM_composite
58623,Holstein Plant,NC,Scotland,20.0,34.774167,-79.340833,,False,no-surge/NoData,NOAA_CFEM_composite
60915,Correctional Solar LLC,VA,New Kent,20.0,37.471464,-76.844612,,False,no-surge/NoData,NOAA_CFEM_composite
61490,Estill Solar,SC,Hampton,20.0,32.763843,-81.242151,,False,no-surge/NoData,NOAA_CFEM_composite
60968,Scott-II Solar LLC,VA,Powhatan,20.0,37.526244,-77.944637,,False,no-surge/NoData,NOAA_CFEM_composite
63814,SR Odom,GA,Colquitt,20.0,31.06987,-83.596183,,False,no-surge/NoData,NOAA_CFEM_composite
65221,Watlington Solar,VA,Halifax,20.0,36.681547,-78.885955,,False,no-surge/NoData,NOAA_CFEM_composite
65220,Pleasant Hill Solar,VA,Suffolk City,20.0,36.692197,-76.578558,,False,no-surge/NoData,NOAA_CFEM_composite
65022,Briel Solar Farm,VA,Henrico,20.0,37.52364,-77.26358,,False,no-surge/NoData,NOAA_CFEM_composite
64817,"Energix Leatherwood, LLC",VA,Henry,20.0,36.687071,-79.709472,,False,no-surge/NoData,NOAA_CFEM_composite
64307,New Orleans Solar Station,LA,Orleans,20.0,30.015,-89.92,,False,no-surge/NoData,NOAA_CFEM_composite
64135,Grassfield Solar,VA,Chesapeake City,20.0,36.65,-76.35,,False,no-surge/NoData,NOAA_CFEM_composite
64093,Montross Solar,VA,Westmoreland,20.0,38.077,-76.786,,False,no-surge/NoData,NOAA_CFEM_composite
64086,Norge Solar Farm,VA,James City,20.0,37.365615,-76.775123,,False,no-surge/NoData,NOAA_CFEM_composite
64015,"Energix Buckingham, LLC",VA,Buckingham,20.0,37.5064,-78.381,,False,no-surge/NoData,NOAA_CFEM_composite
64012,"Energix Nokesville, LLC",VA,Prince William,20.0,38.672,-77.593,,False,no-surge/NoData,NOAA_CFEM_composite
63787,Pleasant Hill PV1,NC,Northampton,20.0,36.53115,-77.550375,,False,no-surge/NoData,NOAA_CFEM_composite
61375,Hecate Energy Cherrydale LLC,VA,Northampton,20.0,37.37,-75.917171,,False,no-surge/NoData,NOAA_CFEM_composite
63777,Pinson Solar Farm,SC,Spartanburg,20.0,34.72,-82.06,,False,no-surge/NoData,NOAA_CFEM_composite
62436,SR Arlington I,GA,Early,20.0,31.402919,-84.836814,,False,no-surge/NoData,NOAA_CFEM_composite
62011,Richmond Spider Solar,VA,Spotsylvania,20.0,38.247123,-77.786223,,False,no-surge/NoData,NOAA_CFEM_composite
61973,Blackville Solar II,SC,Barnwell,20.0,33.344319,-81.261774,,False,no-surge/NoData,NOAA_CFEM_composite
61778,North 301 Solar,NC,Halifax,20.0,36.213,-77.624,,False,no-surge/NoData,NOAA_CFEM_composite
61498,Hampton Solar 2,SC,Hampton,20.0,32.881,-81.136,,False,no-surge/NoData,NOAA_CFEM_composite
66999,Solidago Solar,VA,Isle of Wight,20.0,36.89,-76.71,,False,no-surge/NoData,NOAA_CFEM_composite
65314,Caden Energix Wytheville LLC,VA,Wythe,20.0,36.964279,-81.049858,,False,no-surge/NoData,NOAA_CFEM_composite
61489,Cameron Solar,SC,Calhoun,20.0,33.574,-80.707,,False,no-surge/NoData,NOAA_CFEM_composite
61406,Essex Solar Center,VA,Essex,20.0,37.834094,-76.799967,,False,no-surge/NoData,NOAA_CFEM_composite
68775,Winterberry Solar,VA,Gloucester,20.0,37.36,-76.53,,False,no-surge/NoData,NOAA_CFEM_composite
